{
  "file": "./models/stations.json",
  "stations": [
    {
      "name": "Dublin City",
      "userid": "40ce1a09-7aa8-4c58-a4cd-98bb04d4036e",
      "apiid": 7778677,
      "latitude": 53.355122,
      "longitude": -6.24922,
      "_id": "170293ef-52b5-47d6-9850-75dec3bf9af3"
    },
    {
      "name": "Belo Horizonte",
      "userid": "40ce1a09-7aa8-4c58-a4cd-98bb04d4036e",
      "apiid": 3405825,
      "latitude": -5.3,
      "longitude": -52.866669,
      "_id": "c269d203-e1cb-4e27-b392-627871ab3c66"
    },
    {
      "name": "Madrid",
      "userid": "40ce1a09-7aa8-4c58-a4cd-98bb04d4036e",
      "apiid": 3117735,
      "latitude": 40.4165,
      "longitude": -3.70256,
      "_id": "78475a6c-69c2-4947-ab3e-989b46e1d85b"
    },
    {
      "name": "Tokyo",
      "userid": "40ce1a09-7aa8-4c58-a4cd-98bb04d4036e",
      "apiid": 1850147,
      "latitude": 35.689499,
      "longitude": 139.691711,
      "_id": "aa8355bf-326b-4275-bb5e-e55168afdfef"
    },
    {
      "name": "Ushuaia",
      "userid": "40ce1a09-7aa8-4c58-a4cd-98bb04d4036e",
      "apiid": 3833367,
      "latitude": -54.799999,
      "longitude": -68.300003,
      "_id": "7b6d40e8-f63a-4d8d-910a-d299122d2a4d"
    },
    {
      "name": "Londres",
      "userid": "c6b01110-7fa0-4b42-a56b-94ef0316ec80",
      "apiid": 3846616,
      "latitude": -27.71439,
      "longitude": -67.133492,
      "_id": "2eb9af0c-4660-461e-85ad-3e4cbe227d3a"
    },
    {
      "name": "Dublin City",
      "userid": "c6b01110-7fa0-4b42-a56b-94ef0316ec80",
      "apiid": 7778677,
      "latitude": 53.355122,
      "longitude": -6.24922,
      "_id": "3dc1db39-d8ac-4f2f-a542-45914a2dd001"
    },
    {
      "name": "Belo Horizonte",
      "userid": "c6b01110-7fa0-4b42-a56b-94ef0316ec80",
      "apiid": 3405825,
      "latitude": -5.3,
      "longitude": -52.866669,
      "_id": "1d0a5403-5903-412e-a9a2-5368b276f493"
    },
    {
      "name": "Dubai",
      "userid": "c6b01110-7fa0-4b42-a56b-94ef0316ec80",
      "apiid": 292224,
      "latitude": 25,
      "longitude": 55.333328,
      "_id": "30592309-1dd3-467f-a3b1-6b04277247ba"
    }
  ]
}